OBJECTID,FEATURETYPE,DESCRIPTION,CLASS,FID,NAME,OPERATIONALSTATUS,VOLTAGE,SUBURB,STATE,SPATIALCONFIDENCE,REVISED,COMMENT,LATITUDE,LONGITUDE
1,Substation,"A structure in which high voltage electricity supply is converted, controlled or transformed",Terminal,1,Bowen North,Operational,132,Bowen,Queensland,5,23/02/2017,,-20.01783092,148.1675134
2,Substation,"A structure in which high voltage electricity supply is converted, controlled or transformed",Switchyard,2,Clements Gap Wind Farm,Operational,132,Clements Gap,South Australia,3,23/02/2017,,-33.50826467,138.1307084
3,Substation,"A structure in which high voltage electricity supply is converted, controlled or transformed",Switchyard,3,Snowtown South,Operational,275,Cameron,South Australia,3,23/02/2017,,-33.83016399,138.118444
4,Substation,"A structure in which high voltage electricity supply is converted, controlled or transformed",Switchyard,4,Blyth West,Operational,275,Blyth,South Australia,3,23/02/2017,,-33.84690195,138.4075434
5,Substation,"A structure in which high voltage electricity supply is converted, controlled or transformed",Switchyard,5,Belalie-North Brown Hill Wind ,Operational,275,Belalie East,South Australia,5,23/02/2017,,-33.30921239,138.7272941
6,Substation,"A structure in which high voltage electricity supply is converted, controlled or transformed",Switchyard,6,West Angelas Mine,Operational,220,Newman,Western Australia,5,23/02/2017,Gas,-23.15410603,118.7250547
7,Substation,"A structure in which high voltage electricity supply is converted, controlled or transformed",Substation,7,West Angelas Mine,Operational,220,Newman,Western Australia,5,23/02/2017,,-23.14895383,118.7191731
8,Substation,"A structure in which high voltage electricity supply is converted, controlled or transformed",Switchyard,9,Mumbida Wind Farm,Operational,132,Burma Road,Western Australia,3,23/02/2017,,-28.99180488,114.9598878
9,Substation,"A structure in which high voltage electricity supply is converted, controlled or transformed",Switchyard,10,Redbank,Operational,132,Warkworth,New South Wales,5,23/02/2017,,-32.57954394,151.0725313
10,Substation,"A structure in which high voltage electricity supply is converted, controlled or transformed",Substation,11,Manildra,Operational,132,Manildra,New South Wales,5,23/02/2017,,-33.17989697,148.7169484
11,Substation,"A structure in which high voltage electricity supply is converted, controlled or transformed",Sole Use,12,Cadia,Operational,132,Panuara,New South Wales,5,23/02/2017,,-33.46635289,148.9928177
12,Substation,"A structure in which high voltage electricity supply is converted, controlled or transformed",Substation,13,Homebush Bay,Operational,132,Sydney Olympic Park,New South Wales,5,23/02/2017,,-33.83317965,151.0729994
13,Substation,"A structure in which high voltage electricity supply is converted, controlled or transformed",Substation,14,Hillston,Operational,132,Hillston,New South Wales,5,23/02/2017,,-33.51593252,145.5297208
14,Substation,"A structure in which high voltage electricity supply is converted, controlled or transformed",Substation,15,Hay,Operational,132,Hay,New South Wales,5,23/02/2017,,-34.48941824,144.8782894
15,Substation,"A structure in which high voltage electricity supply is converted, controlled or transformed",Substation,16,Cullerin Range Wind Farm,Operational,66,Cullerin,New South Wales,3,23/02/2017,,-34.79553016,149.3981759
16,Substation,"A structure in which high voltage electricity supply is converted, controlled or transformed",Switchyard,17,Gunning Wind Farm,Operational,66,Gurrundah,New South Wales,3,23/02/2017,,-34.6958309,149.3831752
17,Substation,"A structure in which high voltage electricity supply is converted, controlled or transformed",Zone,18,Brandy Hill,Operational,132,Seaham,New South Wales,5,23/02/2017,,-32.67054973,151.7036703
18,Substation,"A structure in which high voltage electricity supply is converted, controlled or transformed",Zone,19,Wellington Road-SSWRD,Operational,110,East Brisbane,Queensland,5,23/02/2017,,-27.4850175,153.0406545
19,Substation,"A structure in which high voltage electricity supply is converted, controlled or transformed",Zone,20,Meadows,Operational,66,Kuitpo,South Australia,5,23/02/2017,,-35.17180376,138.7692966
20,Substation,"A structure in which high voltage electricity supply is converted, controlled or transformed",Substation,21,Balhannah,Operational,66,Balhannah,South Australia,5,23/02/2017,,-34.99688287,138.8199644
21,Substation,"A structure in which high voltage electricity supply is converted, controlled or transformed",Substation,22,Harndorf,Operational,66,Paechtown,South Australia,5,23/02/2017,,-35.0435803,138.8129851
22,Substation,"A structure in which high voltage electricity supply is converted, controlled or transformed",Substation,23,Mount Barker South,Operational,275,Macclesfield,South Australia,5,23/02/2017,,-35.08475004,138.8486071
23,Substation,"A structure in which high voltage electricity supply is converted, controlled or transformed",Substation,24,Strathalbyn,Operational,66,Bremer,South Australia,5,23/02/2017,,-35.27117233,138.8961509
24,Substation,"A structure in which high voltage electricity supply is converted, controlled or transformed",Substation,25,Port Noarlunga,Operational,66,Willunga,South Australia,5,23/02/2017,,-35.1706023,138.4800141
25,Substation,"A structure in which high voltage electricity supply is converted, controlled or transformed",Substation,26,Port Stanvac,Operational,66,Noarlunga,South Australia,5,23/02/2017,,-35.1087614,138.4898564
26,Substation,"A structure in which high voltage electricity supply is converted, controlled or transformed",Switchyard,27,Oaklands Hill Wind Farm,Operational,66,Glenthompson,Victoria,3,23/02/2017,Wind,-37.68147182,142.5522599
27,Substation,"A structure in which high voltage electricity supply is converted, controlled or transformed",Switchyard,28,Mortons Lane Wind Farm,Operational,66,Woodhouse,Victoria,3,23/02/2017,Wind,-37.83515725,142.4662795
28,Substation,"A structure in which high voltage electricity supply is converted, controlled or transformed",Substation,29,Ballarat North,Operational,66,Wendouree,Victoria,5,23/02/2017,,-37.53461185,143.8468952
29,Substation,"A structure in which high voltage electricity supply is converted, controlled or transformed",Substation,30,Challicum Hills,Operational,66,Buangor,Victoria,3,23/02/2017,,-37.35935152,143.1523862
30,Substation,"A structure in which high voltage electricity supply is converted, controlled or transformed",Substation,31,Ararat,Operational,66,Ararat,Victoria,5,23/02/2017,,-37.26872753,142.9241704
31,Substation,"A structure in which high voltage electricity supply is converted, controlled or transformed",Substation,32,Stawell,Operational,66,Stawell,Victoria,5,23/02/2017,,-37.05833927,142.7524737
32,Substation,"A structure in which high voltage electricity supply is converted, controlled or transformed",Zone,33,Lismore South,Operational,132,South Lismore,New South Wales,5,23/02/2017,,-28.82102142,153.2658041
33,Substation,"A structure in which high voltage electricity supply is converted, controlled or transformed",Switchyard,34,Lismore ,Operational,132,Monaltrie,New South Wales,5,23/02/2017,,-28.8350082,153.2947651
34,Substation,"A structure in which high voltage electricity supply is converted, controlled or transformed",Zone,35,Lismore East,Operational,132,Goonellabah,New South Wales,5,23/02/2017,,-28.81455834,153.3437031
35,Substation,"A structure in which high voltage electricity supply is converted, controlled or transformed",Zone,36,Alstonville,Operational,132,Lynwood,New South Wales,5,23/02/2017,,-28.86432034,153.4332623
36,Substation,"A structure in which high voltage electricity supply is converted, controlled or transformed",Zone,37,Suffolk Park,Operational,132,Byron Bay,New South Wales,5,23/02/2017,,-28.67292096,153.5940707
37,Substation,"A structure in which high voltage electricity supply is converted, controlled or transformed",Zone,38,Ballina,Operational,132,Ballina,New South Wales,5,23/02/2017,,-28.86102138,153.5519151
38,Substation,"A structure in which high voltage electricity supply is converted, controlled or transformed",Zone,39,Lennox Head,Operational,132,Tintenbar,New South Wales,5,23/02/2017,,-28.78151124,153.5522451
39,Substation,"A structure in which high voltage electricity supply is converted, controlled or transformed",Zone,40,Ewingsdale,Operational,132,Ewingsdale,New South Wales,5,23/02/2017,,-28.63728645,153.5543603
40,Substation,"A structure in which high voltage electricity supply is converted, controlled or transformed",Zone,41,Lake Munmorah,Operational,132,Lake Munmorah,New South Wales,5,23/02/2017,,-33.18885933,151.5774135
41,Substation,"A structure in which high voltage electricity supply is converted, controlled or transformed",Zone,42,Argenton,Operational,132,Argenton,New South Wales,5,23/02/2017,,-32.94025762,151.6266885
42,Substation,"A structure in which high voltage electricity supply is converted, controlled or transformed",Zone,43,Maryland,Operational,132,Wallsend,New South Wales,5,23/02/2017,,-32.88781463,151.6522727
43,Substation,"A structure in which high voltage electricity supply is converted, controlled or transformed",Zone,44,West Castle Hill,Operational,132,Castle Hill,New South Wales,5,23/02/2017,,-33.72911279,150.9781631
44,Substation,"A structure in which high voltage electricity supply is converted, controlled or transformed",Zone,45,Rouse Hill,Operational,132,Rouse Hill,New South Wales,5,23/02/2017,,-33.69223004,150.9079745
45,Substation,"A structure in which high voltage electricity supply is converted, controlled or transformed",Zone,46,Mungerie Park,Operational,132,Rouse Hill,New South Wales,5,23/02/2017,,-33.68747054,150.921484
46,Substation,"A structure in which high voltage electricity supply is converted, controlled or transformed",Zone,47,Bella Vista,Operational,132,Bella Vista,New South Wales,5,23/02/2017,,-33.74421609,150.9495654
47,Substation,"A structure in which high voltage electricity supply is converted, controlled or transformed",Zone,48,Cheriton Avenue,Operational,132,Castle Hill,New South Wales,5,23/02/2017,,-33.73222187,151.0001571
48,Substation,"A structure in which high voltage electricity supply is converted, controlled or transformed",Zone,49,City Central,Operational,132,Sydney,New South Wales,2,23/02/2017,,-33.87320708,151.2027304
49,Substation,"A structure in which high voltage electricity supply is converted, controlled or transformed",Zone,50,Belmore Park,Operational,132,Haymarket,New South Wales,5,23/02/2017,,-33.87979623,151.207377
50,Substation,"A structure in which high voltage electricity supply is converted, controlled or transformed",Bulk Supply Point,51,Beaconsfield North,Operational,132,Alexandria,New South Wales,3,23/02/2017,,-33.91433271,151.1879037
51,Substation,"A structure in which high voltage electricity supply is converted, controlled or transformed",Zone,52,Menai,Operational,132,Menai,New South Wales,5,23/02/2017,,-34.01489738,151.0105181
52,Substation,"A structure in which high voltage electricity supply is converted, controlled or transformed",Zone,53,Kirrawee,Operational,132,Kirrawee,New South Wales,5,23/02/2017,,-34.0338854,151.0754556
53,Substation,"A structure in which high voltage electricity supply is converted, controlled or transformed",Zone,54,Port Hacking,Operational,132,Kirrawee,New South Wales,5,23/02/2017,,-34.0271435,151.0802225
54,Substation,"A structure in which high voltage electricity supply is converted, controlled or transformed",Zone,55,Cronulla,Operational,132,Cronulla,New South Wales,5,23/02/2017,,-34.05109407,151.1469068
55,Substation,"A structure in which high voltage electricity supply is converted, controlled or transformed",Zone,56,Eastern Creek,Operational,330,Eastern Creek,New South Wales,5,23/02/2017,,-33.81331219,150.8368042
56,Substation,"A structure in which high voltage electricity supply is converted, controlled or transformed",Zone,57,BHP,Operational,132,Rooty Hill,New South Wales,5,23/02/2017,,-33.76642314,150.8482327
57,Substation,"A structure in which high voltage electricity supply is converted, controlled or transformed",Zone,58,Quakers,Operational,132,Quakers Hill,New South Wales,5,23/02/2017,,-33.73538806,150.8859362
58,Substation,"A structure in which high voltage electricity supply is converted, controlled or transformed",Zone,59,Arndell Park,Operational,132,Arndell Park,New South Wales,5,23/02/2017,,-33.79042023,150.8908587
59,Substation,"A structure in which high voltage electricity supply is converted, controlled or transformed",Zone,60,Granville,Operational,132,Granville,New South Wales,5,23/02/2017,,-33.83001591,151.0088938
60,Substation,"A structure in which high voltage electricity supply is converted, controlled or transformed",Zone,61,North Parramatta,Operational,132,North Parramatta,New South Wales,5,23/02/2017,,-33.80749226,151.0090073
61,Substation,"A structure in which high voltage electricity supply is converted, controlled or transformed",Zone,62,Wetherill Park,Operational,132,Wetherill Park,New South Wales,5,23/02/2017,,-33.84205166,150.9116749
62,Substation,"A structure in which high voltage electricity supply is converted, controlled or transformed",Switchyard,63,Bruce,Operational,132,Bruce,Australian Capital Territory,5,23/02/2017,,-35.24620774,149.1086175
63,Substation,"A structure in which high voltage electricity supply is converted, controlled or transformed",Zone,64,Woden,Operational,132,Woden Valley,Australian Capital Territory,5,23/02/2017,,-35.33366955,149.070425
64,Substation,"A structure in which high voltage electricity supply is converted, controlled or transformed",Zone,65,Gold Creek,Operational,132,Gungahlin,Australian Capital Territory,5,23/02/2017,,-35.17234004,149.1166917
65,Substation,"A structure in which high voltage electricity supply is converted, controlled or transformed",Zone,66,Wanniassa,Operational,132,Tuggeranong,Australian Capital Territory,5,23/02/2017,,-35.38410487,149.0954854
66,Substation,"A structure in which high voltage electricity supply is converted, controlled or transformed",Zone,67,Civic,Operational,132,Acton,Australian Capital Territory,5,23/02/2017,,-35.26951883,149.1090328
67,Substation,"A structure in which high voltage electricity supply is converted, controlled or transformed",Zone,68,City East,Operational,132,Ainslie,Australian Capital Territory,5,23/02/2017,,-35.26934277,149.1502097
68,Substation,"A structure in which high voltage electricity supply is converted, controlled or transformed",Zone,69,Telopea Park,Operational,132,Kingston,Australian Capital Territory,5,23/02/2017,,-35.31070787,149.142895
69,Substation,"A structure in which high voltage electricity supply is converted, controlled or transformed",Zone,70,Fyshwick,Operational,132,Fyshwick,Australian Capital Territory,5,23/02/2017,,-35.3333756,149.1612344
70,Substation,"A structure in which high voltage electricity supply is converted, controlled or transformed",Zone,71,Theodore,Operational,132,Theodore,Australian Capital Territory,5,23/02/2017,,-35.4596393,149.1173168
71,Substation,"A structure in which high voltage electricity supply is converted, controlled or transformed",Zone,72,Belconnen,Operational,132,Belconnen,Australian Capital Territory,5,23/02/2017,,-35.22916857,149.0818734
72,Substation,"A structure in which high voltage electricity supply is converted, controlled or transformed",Zone,73,Latham,Operational,132,Latham,Australian Capital Territory,5,23/02/2017,,-35.21512911,149.0377754
73,Substation,"A structure in which high voltage electricity supply is converted, controlled or transformed",Switchyard,74,Causeway,Operational,132,Kingston,Australian Capital Territory,5,23/02/2017,,-35.31534565,149.148965
74,Substation,"A structure in which high voltage electricity supply is converted, controlled or transformed",Zone,75,Gilmore,Operational,132,Gilmore,Australian Capital Territory,5,23/02/2017,,-35.41028169,149.1412866
75,Substation,"A structure in which high voltage electricity supply is converted, controlled or transformed",Zone,76,Geehi Dam,Operational,132,Geehi,New South Wales,5,23/02/2017,,-36.30176971,148.3138075
76,Substation,"A structure in which high voltage electricity supply is converted, controlled or transformed",Switchyard,77,Halys,Operational,275,Ellesmere,Queensland,5,23/02/2017,,-26.77108521,151.7113017
77,Substation,"A structure in which high voltage electricity supply is converted, controlled or transformed",Zone,78,Duaringa,Operational,132,Duaringa,Queensland,3,23/02/2017,,-23.71072558,149.6797909
78,Substation,"A structure in which high voltage electricity supply is converted, controlled or transformed",Zone,79,Calliope River,Operational,132,Callemondah,Queensland,5,23/02/2017,,-23.85684129,151.1941785
79,Substation,"A structure in which high voltage electricity supply is converted, controlled or transformed",Zone,80,Eagles Downs,Operational,132,Winchester,Queensland,3,23/02/2017,,-22.17476778,148.1891206
80,Substation,"A structure in which high voltage electricity supply is converted, controlled or transformed",Zone,81,Kurnell,Operational,132,Kurnell,New South Wales,5,23/02/2017,,-34.01512894,151.2058884
81,Substation,"A structure in which high voltage electricity supply is converted, controlled or transformed",Bulk Supply Point,82,Beaconsfield South,Operational,132,Alexandria,New South Wales,3,23/02/2017,,-33.9155969,151.1866631
82,Substation,"A structure in which high voltage electricity supply is converted, controlled or transformed",Zone,83,Double Bay,Operational,132,Double Bay,New South Wales,3,23/02/2017,,-33.88347607,151.2466889
83,Substation,"A structure in which high voltage electricity supply is converted, controlled or transformed",Zone,84,Clovelly,Operational,132,Randwick,New South Wales,3,23/02/2017,,-33.90890663,151.248036
84,Substation,"A structure in which high voltage electricity supply is converted, controlled or transformed",Zone,85,Williamsdale,Operational,330,Tuggeranong,Australian Capital Territory,4,23/02/2017,,-35.58532802,149.133324
85,Substation,"A structure in which high voltage electricity supply is converted, controlled or transformed",Zone,86,Burrendong Dam,Operational,132,Yarragal,New South Wales,5,23/02/2017,,-32.66374345,149.1077254
86,Substation,"A structure in which high voltage electricity supply is converted, controlled or transformed",Zone,87,Orange North,Operational,132,Orange,New South Wales,3,23/02/2017,,-33.27421182,149.1084163
87,Substation,"A structure in which high voltage electricity supply is converted, controlled or transformed",Zone,88,Mulwala,Operational,132,Mulwala,New South Wales,4,23/02/2017,,-35.97337647,145.999589
88,Substation,"A structure in which high voltage electricity supply is converted, controlled or transformed",Zone,89,Corowa,Operational,132,Corowa,New South Wales,4,23/02/2017,,-35.97145831,146.3903758
89,Substation,"A structure in which high voltage electricity supply is converted, controlled or transformed",Substation,90,St Leonards,Operational,110,St Leonards,Tasmania,5,23/02/2017,,-41.43967687,147.1760073
90,Substation,"A structure in which high voltage electricity supply is converted, controlled or transformed",Zone,91,Goonyella Riverside,Operational,132,Moranbah,Queensland,4,23/02/2017,,-21.71793275,148.023364
91,Substation,"A structure in which high voltage electricity supply is converted, controlled or transformed",Zone,92,Bluff,Operational,110,Bluff,Queensland,3,23/02/2017,,-23.58807253,149.039849
92,Substation,"A structure in which high voltage electricity supply is converted, controlled or transformed",Zone,93,Kumbarilla Park,Operational,275,Kumbarilla,Queensland,3,23/02/2017,,-27.23043362,150.8498045
93,Substation,"A structure in which high voltage electricity supply is converted, controlled or transformed",Zone,94,Western Downs,Operational,275,Hopeland,Queensland,4,23/02/2017,,-26.93097942,150.7335293
94,Substation,"A structure in which high voltage electricity supply is converted, controlled or transformed",Zone,95,Calliope River,Operational,275,Callemondah,Queensland,5,23/02/2017,,-23.85593019,151.1923772
95,Substation,"A structure in which high voltage electricity supply is converted, controlled or transformed",Zone,96,Raglan,Operational,275,Raglan,Queensland,5,23/02/2017,,-23.75134847,150.8378066
96,Substation,"A structure in which high voltage electricity supply is converted, controlled or transformed",Substation,97,Edgewater,Operational,132,Edgewater,Western Australia,5,23/02/2017,,-31.77299809,115.7811335
97,Substation,"A structure in which high voltage electricity supply is converted, controlled or transformed",Zone,98,Kewdale,Operational,132,Kewdale,Western Australia,5,23/02/2017,,-31.97497111,115.9537636
98,Substation,"A structure in which high voltage electricity supply is converted, controlled or transformed",Substation,99,Cockburn Cement Limited,Operational,132,Munster,Western Australia,5,23/02/2017,,-32.151688,115.8011145
99,Substation,"A structure in which high voltage electricity supply is converted, controlled or transformed",Sole Use,100,Kwinana Stage C,Operational,330,Naval Base,Western Australia,5,23/02/2017,,-32.2026145,115.7741335
100,Substation,"A structure in which high voltage electricity supply is converted, controlled or transformed",Transmission,101,Alinta-Wagerup,Operational,330,Wagerup,Western Australia,5,23/02/2017,,-32.9150223,115.9220165
101,Substation,"A structure in which high voltage electricity supply is converted, controlled or transformed",Sole Use,103,Karara Mine,Operational,330,Rothsay,Western Australia,1,23/02/2017,,-29.18731526,116.7584855
102,Substation,"A structure in which high voltage electricity supply is converted, controlled or transformed",Terminal,104,Three Springs,Operational,330,Womarden,Western Australia,5,23/02/2017,,-29.51923701,115.7961759
103,Substation,"A structure in which high voltage electricity supply is converted, controlled or transformed",Substation,105,Ron Goodin,Operational,22,Sadadeen,Northern Territory,5,23/02/2017,,-23.70898865,133.8921331
104,Substation,"A structure in which high voltage electricity supply is converted, controlled or transformed",Substation,106,Archer,Operational,66,Archer,Northern Territory,1,23/02/2017,,-12.51810605,130.9738856
105,Substation,"A structure in which high voltage electricity supply is converted, controlled or transformed",Zone,107,Oonoonba,Operational,66,Oonoonba,Queensland,5,23/02/2017,,-19.30639038,146.8238211
106,Substation,"A structure in which high voltage electricity supply is converted, controlled or transformed",Zone,108,Rasmussen,Operational,66,Rasmussen,Queensland,1,23/02/2017,,-19.363922,146.7201805
107,Substation,"A structure in which high voltage electricity supply is converted, controlled or transformed",Zone,109,Neil Smith,Operational,66,Townsville City,Queensland,5,23/02/2017,,-19.261259,146.8134905
108,Substation,"A structure in which high voltage electricity supply is converted, controlled or transformed",Zone,110,Townsville Port,Operational,66,South Townsville,Queensland,5,23/02/2017,,-19.26023652,146.8328519
109,Substation,"A structure in which high voltage electricity supply is converted, controlled or transformed",Zone,111,Hermit Park,Operational,66,Hermit Park,Queensland,5,23/02/2017,,-19.280025,146.8003155
110,Substation,"A structure in which high voltage electricity supply is converted, controlled or transformed",Zone,112,Stuart,Operational,66,Stuart,Queensland,5,23/02/2017,,-19.3446178,146.848154
111,Substation,"A structure in which high voltage electricity supply is converted, controlled or transformed",Zone,113,Clare South,Operational,66,Clare,Queensland,5,23/02/2017,,-19.83686,147.2125915
112,Substation,"A structure in which high voltage electricity supply is converted, controlled or transformed",Zone,114,Myrtletown,Operational,110,Brisbane Airport,Queensland,5,23/02/2017,,-27.40260988,153.1304177
113,Substation,"A structure in which high voltage electricity supply is converted, controlled or transformed",Zone,115,Griffin,Operational,110,Griffin,Queensland,1,23/02/2017,,-27.27304806,153.0205905
114,Substation,"A structure in which high voltage electricity supply is converted, controlled or transformed",Zone,116,SSMLS,Operational,110,Fortitude Valley,Queensland,5,23/02/2017,,-27.4583985,153.0359545
115,Substation,"A structure in which high voltage electricity supply is converted, controlled or transformed",Zone,117,SSQRT,Operational,110,Petrie Terrace,Queensland,3,23/02/2017,,-27.4660425,153.014017
116,Substation,"A structure in which high voltage electricity supply is converted, controlled or transformed",Switchyard,118,Blackstone,Operational,110,Swanbank,Queensland,5,23/02/2017,,-27.647566,152.8121335
117,Substation,"A structure in which high voltage electricity supply is converted, controlled or transformed",Zone,119,Eraring,Operational,500,Eraring,New South Wales,5,23/02/2017,,-33.060997,151.5154645
118,Substation,"A structure in which high voltage electricity supply is converted, controlled or transformed",Zone,120,City North,Operational,110,Sydney,New South Wales,5,23/02/2017,,-33.8672695,151.203174
119,Substation,"A structure in which high voltage electricity supply is converted, controlled or transformed",Zone,121,Camellia,Operational,132,Rosehill,New South Wales,5,23/02/2017,,-33.82608,151.030447
120,Substation,"A structure in which high voltage electricity supply is converted, controlled or transformed",Zone,122,Katoomba North,Operational,132,Medlow Bath,New South Wales,5,23/02/2017,,-33.66966795,150.3251858
121,Substation,"A structure in which high voltage electricity supply is converted, controlled or transformed",Zone,123,Oberon,Operational,132,Oberon,New South Wales,5,23/02/2017,,-33.68729985,149.8567731
122,Substation,"A structure in which high voltage electricity supply is converted, controlled or transformed",Zone,124,North Parkes,Operational,132,Goonumbla,New South Wales,5,23/02/2017,,-32.9169905,148.052871
123,Substation,"A structure in which high voltage electricity supply is converted, controlled or transformed",Substation,125,Macarthur Wind Farm,Operational,500,Macarthur,Victoria,5,23/02/2017,,-38.06480431,142.1843602
124,Substation,"A structure in which high voltage electricity supply is converted, controlled or transformed",Substation,126,Tarrone,Operational,500,Tarrone,Victoria,5,23/02/2017,,-38.17916962,142.1810733
125,Substation,"A structure in which high voltage electricity supply is converted, controlled or transformed",Substation,127,Wemen,Operational,220,Liparoo,Victoria,1,23/02/2017,,-34.784857,142.5214605
126,Substation,"A structure in which high voltage electricity supply is converted, controlled or transformed",Substation,128,Whitmore Square,Operational,66,Adelaide,South Australia,5,23/02/2017,,-34.93221422,138.595326
127,Substation,"A structure in which high voltage electricity supply is converted, controlled or transformed",Substation,129,Keswick,Operational,66,Adelaide,South Australia,5,23/02/2017,,-34.944567,138.5787102
128,Substation,"A structure in which high voltage electricity supply is converted, controlled or transformed",Substation,130,City West,Operational,275,Keswick Terminal,South Australia,5,23/02/2017,,-34.939635,138.5798455
129,Substation,"A structure in which high voltage electricity supply is converted, controlled or transformed",Substation,131,Mornington,Operational,110,Mornington,Tasmania,1,23/02/2017,,-42.860617,147.407549
130,Substation,"A structure in which high voltage electricity supply is converted, controlled or transformed",Zone,132,West Wetherill,Operational,132,Wetherill Park,New South Wales,5,23/02/2017,,-33.84197789,150.8813749
131,Substation,"A structure in which high voltage electricity supply is converted, controlled or transformed",Substation,133,Clare North,Operational,132,Clare,South Australia,5,23/02/2017,,-33.82334238,138.6266446
132,Substation,"A structure in which high voltage electricity supply is converted, controlled or transformed",Zone,134,Munyang,Operational,132,Kosciuszko National Park,New South Wales,1,23/02/2017,,-36.35104851,148.411784
133,Substation,"A structure in which high voltage electricity supply is converted, controlled or transformed",Switchyard,135,Blowering,Operational,132,Wereboldera,New South Wales,5,23/02/2017,,-35.39828527,148.2454032
134,Substation,"A structure in which high voltage electricity supply is converted, controlled or transformed",Zone,136,Abermain,Operational,275,Tivoli,Queensland,2,23/02/2017,,-27.57716312,152.7716419
135,Substation,"A structure in which high voltage electricity supply is converted, controlled or transformed",Zone,137,Townsville ,Operational,66,Yabulu,Queensland,5,23/02/2017,,-19.20152168,146.618939
136,Substation,"A structure in which high voltage electricity supply is converted, controlled or transformed",Zone,138,Larcom Creek,Operational,275,Aldoga,Queensland,1,23/02/2017,,-23.82301,151.0697765
137,Substation,"A structure in which high voltage electricity supply is converted, controlled or transformed",Substation,139,Muja,Operational,220,Muja,Western Australia,5,23/02/2017,,-33.45584897,116.3094649
138,Substation,"A structure in which high voltage electricity supply is converted, controlled or transformed",Switchyard,140,Hudson Creek 66,Operational,66,Wishart,Northern Territory,5,23/02/2017,,-12.45895163,130.9315735
139,Substation,"A structure in which high voltage electricity supply is converted, controlled or transformed",Transmission,141,Hudson Creek 132,Operational,132,Wishart,Northern Territory,5,23/02/2017,,-12.45894622,130.9322857
140,Substation,"A structure in which high voltage electricity supply is converted, controlled or transformed",Switchyard,142,Warragamba Dam,Operational,132,Warragamba,New South Wales,5,23/02/2017,,-33.88248966,150.5973502
141,Substation,"A structure in which high voltage electricity supply is converted, controlled or transformed",Switchyard,143,Capital Hill Wind Farm,Operational,132,Lake George,New South Wales,1,23/02/2017,,-35.18739877,149.5230093
142,Substation,"A structure in which high voltage electricity supply is converted, controlled or transformed",Substation,144,Uranquinty,Operational,132,Uranquinty,New South Wales,5,23/02/2017,,-35.17730023,147.2154018
143,Substation,"A structure in which high voltage electricity supply is converted, controlled or transformed",Substation,145,Loy Yang,Operational,66,Loy Yang,Victoria,5,23/02/2017,,-38.25487506,146.571266
144,Substation,"A structure in which high voltage electricity supply is converted, controlled or transformed",Switchyard,146,Loy Yang ,Operational,500,Loy Yang,Victoria,5,23/02/2017,,-38.25649684,146.5738617
145,Substation,"A structure in which high voltage electricity supply is converted, controlled or transformed",Substation,147,Millstream,Operational,220,Fortescue,Western Australia,5,23/02/2017,,-21.24350431,116.9746552
146,Substation,"A structure in which high voltage electricity supply is converted, controlled or transformed",Substation,148,Mortlake,Operational,500,Mortlake,Victoria,5,23/02/2017,,-38.06221891,142.6703807
147,Substation,"A structure in which high voltage electricity supply is converted, controlled or transformed",Switchyard,149,Yurralyi Maya,Operational,220,Maitland,Western Australia,5,23/02/2017,Gas,-20.76270789,116.7426053
148,Substation,"A structure in which high voltage electricity supply is converted, controlled or transformed",Zone,150,Red Hill,Operational,132,Koolunga,South Australia,3,23/02/2017,,-33.49521627,138.2674306
149,Substation,"A structure in which high voltage electricity supply is converted, controlled or transformed",Switchyard,151,Mokota,Operational,132,Ayers,South Australia,1,23/02/2017,,-33.55677562,138.8482522
150,Substation,"A structure in which high voltage electricity supply is converted, controlled or transformed",Substation,152,Athol,Operational,110,Yatala,South Australia,5,23/02/2017,,-34.85309185,138.5384473
151,Substation,"A structure in which high voltage electricity supply is converted, controlled or transformed",Zone,153,Hillcrest,Operational,110,Hillcrest,South Australia,5,23/02/2017,,-34.86184126,138.6481636
152,Substation,"A structure in which high voltage electricity supply is converted, controlled or transformed",Zone,154,Clearview,Operational,110,Clearview,South Australia,5,23/02/2017,,-34.86044456,138.6105131
153,Substation,"A structure in which high voltage electricity supply is converted, controlled or transformed",Substation,155,Holden Hill,Operational,110,Holden Hill,South Australia,3,23/02/2017,,-34.84542828,138.6717566
154,Substation,"A structure in which high voltage electricity supply is converted, controlled or transformed",Zone,156,Croydon,Operational,132,Yatala,South Australia,5,23/02/2017,,-34.90046994,138.5659266
155,Substation,"A structure in which high voltage electricity supply is converted, controlled or transformed",Substation,157,Kilburn South,Operational,110,Kilburn,South Australia,5,23/02/2017,,-34.86519302,138.5858179
156,Substation,"A structure in which high voltage electricity supply is converted, controlled or transformed",Transmission,158,Waterloo East,Operational,132,Tothill Belt,South Australia,1,23/02/2017,,-34.00174338,138.9109263
157,Substation,"A structure in which high voltage electricity supply is converted, controlled or transformed",Sole Use,159,Pannawomica,Operational,132,Fortescue,Western Australia,3,23/02/2017,,-21.68011957,116.4644209
158,Substation,"A structure in which high voltage electricity supply is converted, controlled or transformed",Switchyard,160,Wattle Point Wind Farm,Operational,110,Edithburgh,South Australia,1,23/02/2017,,-35.11035045,137.7057778
159,Substation,"A structure in which high voltage electricity supply is converted, controlled or transformed",Substation,161,Ellenbrook,Operational,132,Whiteman,Western Australia,5,23/02/2017,,-31.796419,115.9612405
160,Substation,"A structure in which high voltage electricity supply is converted, controlled or transformed",Terminal,162,Snowtown North,Operational,110,Barunga,South Australia,5,23/02/2017,,-33.71354245,138.1403936
161,Substation,"A structure in which high voltage electricity supply is converted, controlled or transformed",Substation,163,Rangeway,Operational,132,Geraldton,Western Australia,5,23/02/2017,,-28.78549796,114.6237408
162,Substation,"A structure in which high voltage electricity supply is converted, controlled or transformed",Switchyard,164,Mount Millar Wind Farm,Operational,132,Hawker,South Australia,5,23/02/2017,,-33.62536079,136.7037056
163,Substation,"A structure in which high voltage electricity supply is converted, controlled or transformed",Substation,165,Wangara,Operational,132,Wangara,Western Australia,3,23/02/2017,,-31.79671948,115.8240048
164,Substation,"A structure in which high voltage electricity supply is converted, controlled or transformed",Substation,166,Joondalup,Operational,132,Joondalup,Western Australia,5,23/02/2017,,-31.73839775,115.7590151
165,Substation,"A structure in which high voltage electricity supply is converted, controlled or transformed",Substation,167,Clarkson,Operational,132,Clarkson,Western Australia,5,23/02/2017,,-31.67124535,115.7284711
166,Substation,"A structure in which high voltage electricity supply is converted, controlled or transformed",Terminal,168,Neerabup ,Operational,132,Pinjar,Western Australia,5,23/02/2017,,-31.68180255,115.8219549
167,Substation,"A structure in which high voltage electricity supply is converted, controlled or transformed",Zone,169,Ingle Farm,Operational,110,Ingle Farm,South Australia,5,23/02/2017,,-34.82143033,138.6513206
168,Substation,"A structure in which high voltage electricity supply is converted, controlled or transformed",Terminal,170,Wells Terminal,Operational,330,Mount Wells,Western Australia,5,23/02/2017,,-32.71731119,116.3165261
169,Substation,"A structure in which high voltage electricity supply is converted, controlled or transformed",Switchyard,172,Cape Nelson North Wind Farm,Operational,66,Portland West,Victoria,5,23/02/2017,Wind,-38.36608477,141.5479875
170,Substation,"A structure in which high voltage electricity supply is converted, controlled or transformed",Switchyard,173,Cape Bridgewater Wind Farm,Operational,66,Cape Bridgewater,Victoria,5,23/02/2017,Wind,-38.372159,141.3794415
171,Substation,"A structure in which high voltage electricity supply is converted, controlled or transformed",Sole Use,174,Binningup Desalination Plant,Operational,132,Binningup,Western Australia,2,23/02/2017,,-33.129828,115.7056005
172,Substation,"A structure in which high voltage electricity supply is converted, controlled or transformed",Substation,175,Meadow Springs,Operational,132,Lakelands,Western Australia,5,23/02/2017,,-32.48478265,115.7651619
173,Substation,"A structure in which high voltage electricity supply is converted, controlled or transformed",Terminal,176,Bluewaters ,Operational,330,Palmer,Western Australia,5,23/02/2017,,-33.33187561,116.2338208
174,Substation,"A structure in which high voltage electricity supply is converted, controlled or transformed",Zone,177,Murdoch,Operational,132,Murdoch,Western Australia,5,23/02/2017,,-32.07749733,115.8431726
175,Substation,"A structure in which high voltage electricity supply is converted, controlled or transformed",Substation,178,Somerton,Operational,66,Somerton,Victoria,5,23/02/2017,,-37.62247383,144.9486348
176,Substation,"A structure in which high voltage electricity supply is converted, controlled or transformed",Zone,179,Stanwell Power Station ,Operational,132,Stanwell,Queensland,5,23/02/2017,,-23.515966,150.321371
177,Substation,"A structure in which high voltage electricity supply is converted, controlled or transformed",Sole Use,180,Yarwun,Operational,132,Yarwun,Queensland,5,23/02/2017,,-23.83125089,151.1527306
178,Substation,"A structure in which high voltage electricity supply is converted, controlled or transformed",Terminal,181,Gladstone,Operational,132,Callemondah,Queensland,5,23/02/2017,,-23.84979135,151.2166749
179,Substation,"A structure in which high voltage electricity supply is converted, controlled or transformed",Zone,182,Gladstone South,Operational,132,Toolooa,Queensland,5,23/02/2017,,-23.88630268,151.2736534
180,Substation,"A structure in which high voltage electricity supply is converted, controlled or transformed",Zone,183,Aramara,Operational,132,Doongul,Queensland,1,23/02/2017,,-25.51095804,152.3490329
181,Substation,"A structure in which high voltage electricity supply is converted, controlled or transformed",Sole Use,184,Queensland Alumina Limited Sou,Operational,132,South Trees,Queensland,5,23/02/2017,,-23.8731405,151.2889405
182,Substation,"A structure in which high voltage electricity supply is converted, controlled or transformed",Zone,185,Yabulu South,Operational,132,Black River,Queensland,5,23/02/2017,,-19.25107877,146.5745957
183,Substation,"A structure in which high voltage electricity supply is converted, controlled or transformed",Zone,186,Blue Valley,Operational,132,Mount Wyatt,Queensland,5,23/02/2017,,-20.44895039,147.3462236
184,Substation,"A structure in which high voltage electricity supply is converted, controlled or transformed",Zone,187,King Creek,Operational,132,Bogie,Queensland,5,23/02/2017,,-20.36523236,147.4728302
185,Substation,"A structure in which high voltage electricity supply is converted, controlled or transformed",Switchyard,188,Kogan Creek ,Operational,275,Brigalow,Queensland,4,23/02/2017,,-26.91867792,150.7481213
186,Substation,"A structure in which high voltage electricity supply is converted, controlled or transformed",Zone,189,Rolleston,Operational,132,Albinia,Queensland,5,23/02/2017,,-24.389554,148.435928
187,Substation,"A structure in which high voltage electricity supply is converted, controlled or transformed",Zone,190,Newlands,Operational,132,Newlands,Queensland,5,23/02/2017,,-20.956626,147.8930115
188,Substation,"A structure in which high voltage electricity supply is converted, controlled or transformed",Zone,191,Milton,Operational,110,Milton,Queensland,5,23/02/2017,,-27.466434,153.0088571
189,Substation,"A structure in which high voltage electricity supply is converted, controlled or transformed",Zone,192,SSCST,Operational,110,Brisbane City,Queensland,5,23/02/2017,,-27.469999,153.0279965
190,Substation,"A structure in which high voltage electricity supply is converted, controlled or transformed",Zone,193,Bald Hills,Operational,110,Carseldine,Queensland,5,23/02/2017,,-27.333583,153.0187605
191,Substation,"A structure in which high voltage electricity supply is converted, controlled or transformed",Zone,194,Guildford,Operational,132,Guildford West,New South Wales,5,23/02/2017,,-33.8505885,150.9576355
192,Substation,"A structure in which high voltage electricity supply is converted, controlled or transformed",Zone,195,Molong,Operational,132,Molong,New South Wales,5,23/02/2017,,-33.08688954,148.8989584
193,Substation,"A structure in which high voltage electricity supply is converted, controlled or transformed",Zone,196,Mount Piper 132,Operational,132,Blackmans Flat,New South Wales,5,23/02/2017,,-33.35124294,150.0226459
194,Substation,"A structure in which high voltage electricity supply is converted, controlled or transformed",Zone,197,Beresfield,Operational,132,Beresfield,New South Wales,5,23/02/2017,,-32.79945006,151.6379381
195,Substation,"A structure in which high voltage electricity supply is converted, controlled or transformed",Zone,198,Homebush,Operational,132,Homebush,New South Wales,5,23/02/2017,,-33.867087,151.0885785
196,Substation,"A structure in which high voltage electricity supply is converted, controlled or transformed",Zone,199,Baulkham Hills,Operational,132,Old Toongabbie,New South Wales,5,23/02/2017,,-33.78182703,150.9687209
197,Substation,"A structure in which high voltage electricity supply is converted, controlled or transformed",Zone,200,Mamre,Operational,132,Erskine Park,New South Wales,5,23/02/2017,,-33.81194406,150.7953532
198,Substation,"A structure in which high voltage electricity supply is converted, controlled or transformed",Zone,201,Rooty Hill,Operational,132,Plumpton,New South Wales,5,23/02/2017,,-33.7586705,150.839003
199,Substation,"A structure in which high voltage electricity supply is converted, controlled or transformed",Zone,202,Wollar,Operational,500,Wollar,New South Wales,5,23/02/2017,,-32.41167146,149.9532661
200,Substation,"A structure in which high voltage electricity supply is converted, controlled or transformed",Zone,203,Parkes,Operational,132,Parkes,New South Wales,5,23/02/2017,,-33.10273408,148.0749899
201,Substation,"A structure in which high voltage electricity supply is converted, controlled or transformed",Zone,204,Finley,Operational,132,Finley,New South Wales,5,23/02/2017,,-35.6397883,145.5127435
202,Substation,"A structure in which high voltage electricity supply is converted, controlled or transformed",Switchyard,205,Gunnedah 132-66,Operational,132,Carroll,New South Wales,5,23/02/2017,,-30.97733144,150.3397489
203,Substation,"A structure in which high voltage electricity supply is converted, controlled or transformed",Zone,206,Macksville,Operational,132,Macksville,New South Wales,3,23/02/2017,,-30.721702,152.9095575
204,Substation,"A structure in which high voltage electricity supply is converted, controlled or transformed",Zone,207,Parklea,Operational,132,Stanhope Gardens,New South Wales,5,23/02/2017,,-33.72014111,150.9363555
205,Substation,"A structure in which high voltage electricity supply is converted, controlled or transformed",Substation,208,Creek Road,Operational,110,New Town,Tasmania,5,23/02/2017,,-42.85947408,147.2917515
206,Substation,"A structure in which high voltage electricity supply is converted, controlled or transformed",Substation,209,Sheffield,Operational,220,Nook,Tasmania,5,23/02/2017,,-41.3357665,146.306969
207,Substation,"A structure in which high voltage electricity supply is converted, controlled or transformed",Substation,210,Derby,Operational,110,Derby,Tasmania,5,23/02/2017,,-41.133774,147.811781
208,Substation,"A structure in which high voltage electricity supply is converted, controlled or transformed",Substation,211,George Town,Operational,220,Bell Bay,Tasmania,5,23/02/2017,,-41.1285675,146.8853275
209,Substation,"A structure in which high voltage electricity supply is converted, controlled or transformed",Substation,212,Palmerston,Operational,220,Poatina,Tasmania,5,23/02/2017,,-41.7872955,146.9902045
210,Substation,"A structure in which high voltage electricity supply is converted, controlled or transformed",Substation,213,Queenstown,Operational,220,Queenstown,Tasmania,5,23/02/2017,,-42.066135,145.56022
211,Substation,"A structure in which high voltage electricity supply is converted, controlled or transformed",Substation,214,Waddamana 220,Operational,220,Waddamana,Tasmania,5,23/02/2017,,-42.12613746,146.745611
212,Substation,"A structure in which high voltage electricity supply is converted, controlled or transformed",Substation,215,Waratah,Operational,110,Waratah,Tasmania,5,23/02/2017,,-41.488735,145.4826995
213,Substation,"A structure in which high voltage electricity supply is converted, controlled or transformed",Zone,216,Edith River,Operational,132,Nitmiluk,Northern Territory,5,23/02/2017,,-14.19512284,132.0528104
214,Substation,"A structure in which high voltage electricity supply is converted, controlled or transformed",Substation,217,Mandorah,Operational,66,Cox Peninsula,Northern Territory,5,23/02/2017,,-12.44709942,130.7409458
215,Substation,"A structure in which high voltage electricity supply is converted, controlled or transformed",Substation,218,Mandorah,Operational,66,Mandorah,Northern Territory,5,23/02/2017,,-12.44531483,130.7657398
216,Substation,"A structure in which high voltage electricity supply is converted, controlled or transformed",Substation,219,Larrakeyah,Operational,66,The Gardens,Northern Territory,5,23/02/2017,,-12.44975252,130.827701
217,Substation,"A structure in which high voltage electricity supply is converted, controlled or transformed",Zone,220,Wagga North,Operational,132,Bomen,New South Wales,5,23/02/2017,,-35.07644731,147.4226795
218,Substation,"A structure in which high voltage electricity supply is converted, controlled or transformed",Substation,221,Lovegrove,Operational,66,Ciccone,Northern Territory,5,23/02/2017,,-23.69156156,133.8625375
219,Substation,"A structure in which high voltage electricity supply is converted, controlled or transformed",Substation,222,Katherine,Operational,132,Cossack,Northern Territory,5,23/02/2017,,-14.45821497,132.2454639
220,Substation,"A structure in which high voltage electricity supply is converted, controlled or transformed",Substation,223,Pine Creek,Operational,132,Pine Creek,Northern Territory,5,23/02/2017,,-13.80807627,131.8368077
221,Substation,"A structure in which high voltage electricity supply is converted, controlled or transformed",Substation,224,Pine Creek,Operational,66,Pine Creek,Northern Territory,5,23/02/2017,,-13.78471168,131.8621584
222,Substation,"A structure in which high voltage electricity supply is converted, controlled or transformed",Transmission,225,Channel Island,Operational,132,Channel Island,Northern Territory,5,23/02/2017,,-12.55592718,130.8670097
223,Substation,"A structure in which high voltage electricity supply is converted, controlled or transformed",Transmission,226,Weddell,Operational,132,Wickham,Northern Territory,4,23/02/2017,,-12.57704095,130.9496937
224,Substation,"A structure in which high voltage electricity supply is converted, controlled or transformed",Substation,227,Cox Peninsula,Operational,66,Cox Peninsula,Northern Territory,5,23/02/2017,,-12.41256472,130.6267172
225,Substation,"A structure in which high voltage electricity supply is converted, controlled or transformed",Substation,228,Berrimah,Operational,66,Berrimah,Northern Territory,5,23/02/2017,,-12.42633385,130.920366
226,Substation,"A structure in which high voltage electricity supply is converted, controlled or transformed",Zone,229,Marrakai,Operational,66,Marrakai,Northern Territory,1,23/02/2017,,-12.74728191,131.4793129
227,Substation,"A structure in which high voltage electricity supply is converted, controlled or transformed",Switchyard,230,Dampier,Operational,220,Dampier,Western Australia,5,23/02/2017,Gas,-20.64893804,116.7220438
228,Substation,"A structure in which high voltage electricity supply is converted, controlled or transformed",Terminal,232,Wagerup,Operational,132,Wagerup,Western Australia,5,23/02/2017,,-32.91625153,115.9220681
229,Substation,"A structure in which high voltage electricity supply is converted, controlled or transformed",Terminal,233,Oakley ,Operational,330,Oakley,Western Australia,5,23/02/2017,,-32.64704789,115.8961129
230,Substation,"A structure in which high voltage electricity supply is converted, controlled or transformed",Sole Use,234,Australian Fused Metals,Operational,132,East Rockingham,Western Australia,5,23/02/2017,,-32.26421572,115.7628323
231,Substation,"A structure in which high voltage electricity supply is converted, controlled or transformed",Sole Use,235,British Petroleum Refinery,Operational,132,Kwinana Beach,Western Australia,5,23/02/2017,,-32.22337856,115.7657359
232,Substation,"A structure in which high voltage electricity supply is converted, controlled or transformed",Switchyard,236,Kwinana Stage A B,Operational,132,Naval Base,Western Australia,5,23/02/2017,,-32.19763872,115.7765384
233,Substation,"A structure in which high voltage electricity supply is converted, controlled or transformed",Switchyard,237,Cockburn Terminal,Operational,330,Naval Base,Western Australia,5,23/02/2017,,-32.20032254,115.7760641
234,Substation,"A structure in which high voltage electricity supply is converted, controlled or transformed",Substation,238,Waikiki,Operational,132,Waikiki,Western Australia,5,23/02/2017,,-32.32534025,115.7565831
235,Substation,"A structure in which high voltage electricity supply is converted, controlled or transformed",Terminal,239,Guildford,Operational,330,Hazelmere,Western Australia,5,23/02/2017,,-31.90209151,116.0033606
236,Substation,"A structure in which high voltage electricity supply is converted, controlled or transformed",Zone,240,Webforge,Operational,66,Welshpool,Western Australia,2,23/02/2017,,-31.9955667,115.9182888
237,Substation,"A structure in which high voltage electricity supply is converted, controlled or transformed",Substation,241,Bibra Lake,Operational,132,Bibra Lake,Western Australia,5,23/02/2017,,-32.1148755,115.8007775
238,Substation,"A structure in which high voltage electricity supply is converted, controlled or transformed",Sole Use,242,Jan,Operational,132,Widgiemooltha,Western Australia,1,23/02/2017,,-31.36989176,121.801994
239,Substation,"A structure in which high voltage electricity supply is converted, controlled or transformed",Sole Use,243,Western Mining Kambalda,Operational,132,Kambalda East,Western Australia,1,23/02/2017,,-31.19239672,121.6749776
240,Substation,"A structure in which high voltage electricity supply is converted, controlled or transformed",Substation,244,Northam 66,Operational,66,Northam,Western Australia,5,23/02/2017,,-31.65278274,116.6981601
241,Substation,"A structure in which high voltage electricity supply is converted, controlled or transformed",Substation,245,Joel Terrace 132,Operational,132,East Perth,Western Australia,5,23/02/2017,,-31.94448283,115.8808007
242,Substation,"A structure in which high voltage electricity supply is converted, controlled or transformed",Substation,246,Malaga,Operational,132,Malaga,Western Australia,5,23/02/2017,,-31.85395639,115.8922136
243,Substation,"A structure in which high voltage electricity supply is converted, controlled or transformed",Substation,247,Padbury,Operational,132,Padbury,Western Australia,5,23/02/2017,,-31.80486952,115.7740035
244,Substation,"A structure in which high voltage electricity supply is converted, controlled or transformed",Switchyard,248,Neerabup,Operational,330,Pinjar,Western Australia,5,23/02/2017,,-31.6792921,115.8233589
245,Substation,"A structure in which high voltage electricity supply is converted, controlled or transformed",Substation,249,Guda Guda,Operational,33,Wyndham,Western Australia,5,23/02/2017,,-15.5278775,128.1883345
246,Substation,"A structure in which high voltage electricity supply is converted, controlled or transformed",Substation,250,Kununurra,Operational,132,Kununurra,Western Australia,5,23/02/2017,,-15.7788658,128.740308
247,Substation,"A structure in which high voltage electricity supply is converted, controlled or transformed",Transmission,251,Lake Argyle,Operational,132,Lake Argyle,Western Australia,4,23/02/2017,,-16.10520409,128.7438008
248,Substation,"A structure in which high voltage electricity supply is converted, controlled or transformed",Sole Use,252,Argyle Diamond Mine,Operational,132,Lake Argyle,Western Australia,5,23/02/2017,,-16.71628385,128.4038786
249,Substation,"A structure in which high voltage electricity supply is converted, controlled or transformed",Zone,253,Townsville East,Operational,132,South Townsville,Queensland,5,23/02/2017,,-19.261779,146.8337675
250,Substation,"A structure in which high voltage electricity supply is converted, controlled or transformed",Switchyard,254,Catagunya,Operational,220,Ouse,Tasmania,5,23/02/2017,,-42.4516143,146.5986439
251,Substation,"A structure in which high voltage electricity supply is converted, controlled or transformed",Switchyard,255,Lake Echo,Operational,110,Dee,Tasmania,5,23/02/2017,,-42.25400067,146.6204676
252,Substation,"A structure in which high voltage electricity supply is converted, controlled or transformed",Substation,256,Mowbray,Operational,110,Mowbray,Tasmania,5,23/02/2017,,-41.40923041,147.1364224
253,Substation,"A structure in which high voltage electricity supply is converted, controlled or transformed",Substation,257,Basslink-George Town,Operational,400,George Town,Tasmania,5,23/02/2017,,-41.1143705,146.8921315
254,Substation,"A structure in which high voltage electricity supply is converted, controlled or transformed",Switchyard,258,Paloona,Operational,110,Paloona,Tasmania,5,23/02/2017,,-41.2829355,146.2495775
255,Substation,"A structure in which high voltage electricity supply is converted, controlled or transformed",Substation,259,Hampshire,Operational,110,Hampshire,Tasmania,3,23/02/2017,,-41.26981188,145.7274275
256,Substation,"A structure in which high voltage electricity supply is converted, controlled or transformed",Terminal,260,Meadowbank,Operational,110,Meadowbank,Tasmania,5,23/02/2017,,-42.609532,146.8463295
257,Substation,"A structure in which high voltage electricity supply is converted, controlled or transformed",Switchyard,261,Cluny,Operational,220,Ouse,Tasmania,5,23/02/2017,,-42.505847,146.6796355
258,Substation,"A structure in which high voltage electricity supply is converted, controlled or transformed",Zone,263,Butlers Gorge Tee,Operational,110,Butlers Gorge,Tasmania,5,23/02/2017,,-42.2544325,146.3099315
259,Substation,"A structure in which high voltage electricity supply is converted, controlled or transformed",Substation,264,Monash,Operational,132,Monash,South Australia,5,23/02/2017,,-34.23768918,140.5969743
260,Substation,"A structure in which high voltage electricity supply is converted, controlled or transformed",Substation,265,Prospect,Operational,66,Prospect,South Australia,5,23/02/2017,,-34.88043697,138.5847888
261,Substation,"A structure in which high voltage electricity supply is converted, controlled or transformed",Substation,266,Roseworthy,Operational,132,Nuriootpa,South Australia,5,23/02/2017,,-34.54870596,138.7610555
262,Substation,"A structure in which high voltage electricity supply is converted, controlled or transformed",Substation,267,Dry Creek,Operational,66,Port Adelaide,South Australia,5,23/02/2017,Gas,-34.84808251,138.5817415
263,Substation,"A structure in which high voltage electricity supply is converted, controlled or transformed",Switchyard,268,Canowie,Operational,275,Canowie,South Australia,5,23/02/2017,,-33.3466424,138.7518677
264,Substation,"A structure in which high voltage electricity supply is converted, controlled or transformed",Switchyard,269,Olympic Dam West,Operational,275,Olympic Dam,South Australia,5,23/02/2017,,-30.44916602,136.860475
265,Substation,"A structure in which high voltage electricity supply is converted, controlled or transformed",Substation,270,Prominent Hill,Operational,132,Mount Eba,South Australia,1,23/02/2017,,-29.68504,135.59131
266,Substation,"A structure in which high voltage electricity supply is converted, controlled or transformed",Substation,271,Sleaford,Operational,132,Sleaford,South Australia,5,23/02/2017,,-34.850022,135.594413
267,Substation,"A structure in which high voltage electricity supply is converted, controlled or transformed",Transmission,272,Playford B,Non-Operational,275,Port Paterson,South Australia,5,23/02/2017,,-32.53832346,137.7838106
268,Substation,"A structure in which high voltage electricity supply is converted, controlled or transformed",Transmission,273,Torrens Island A,Operational,275,Port Adelaide,South Australia,5,23/02/2017,,-34.80786168,138.5231515
269,Substation,"A structure in which high voltage electricity supply is converted, controlled or transformed",Switchyard,274,Torrens Island B,Operational,275,Port Adelaide,South Australia,5,23/02/2017,,-34.80616652,138.5245909
270,Substation,"A structure in which high voltage electricity supply is converted, controlled or transformed",Substation,275,Le Fevre,Operational,275,Osborne,South Australia,5,23/02/2017,,-34.77959332,138.5092707
271,Substation,"A structure in which high voltage electricity supply is converted, controlled or transformed",Transmission,276,Torrens North,Operational,132,Port Adelaide,South Australia,5,23/02/2017,,-34.77952125,138.5218458
272,Substation,"A structure in which high voltage electricity supply is converted, controlled or transformed",Transmission,277,Pelican Point,Operational,275,Port Adelaide,South Australia,5,23/02/2017,,-34.76555372,138.5069119
273,Substation,"A structure in which high voltage electricity supply is converted, controlled or transformed",Substation,278,Tungkillo,Operational,275,Tungkillo,South Australia,5,23/02/2017,,-34.87774891,139.0595036
274,Substation,"A structure in which high voltage electricity supply is converted, controlled or transformed",Substation,279,Mayura,Operational,132,Mayura,South Australia,3,23/02/2017,,-37.7378365,140.3878255
275,Substation,"A structure in which high voltage electricity supply is converted, controlled or transformed",Zone,280,Bundamba,Operational,132,Bundamba,Queensland,5,23/02/2017,,-27.59391862,152.8182284
276,Substation,"A structure in which high voltage electricity supply is converted, controlled or transformed",Zone,281,Edmonton,Operational,132,White Rock,Queensland,5,23/02/2017,,-16.97765087,145.7548607
277,Substation,"A structure in which high voltage electricity supply is converted, controlled or transformed",Zone,282,El Arish,Operational,132,Maria Creeks,Queensland,5,23/02/2017,,-17.80963911,146.0255797
278,Substation,"A structure in which high voltage electricity supply is converted, controlled or transformed",Zone,283,Woree,Operational,275,Woree,Queensland,5,23/02/2017,,-16.95595307,145.7518136
279,Substation,"A structure in which high voltage electricity supply is converted, controlled or transformed",Zone,284,Strathmore,Operational,275,Springlands,Queensland,5,23/02/2017,,-20.49918551,147.7753644
280,Substation,"A structure in which high voltage electricity supply is converted, controlled or transformed",Zone,285,Coppabella,Operational,132,Coppabella,Queensland,5,23/02/2017,,-21.91297717,148.3528022
281,Substation,"A structure in which high voltage electricity supply is converted, controlled or transformed",Zone,286,Traveston,Operational,132,Traveston,Queensland,5,23/02/2017,,-26.31801221,152.7777714
282,Substation,"A structure in which high voltage electricity supply is converted, controlled or transformed",Switchyard,287,Callide A ,Operational,132,Mount Murchison,Queensland,5,23/02/2017,,-24.334319,150.628405
283,Substation,"A structure in which high voltage electricity supply is converted, controlled or transformed",Substation,288,Gladstone North,Operational,132,Callemondah,Queensland,5,23/02/2017,,-23.84586292,151.2165571
284,Substation,"A structure in which high voltage electricity supply is converted, controlled or transformed",Sole Use,289,Queensland Alumina Limited,Operational,132,South Trees,Queensland,5,23/02/2017,,-23.865468,151.292849
285,Substation,"A structure in which high voltage electricity supply is converted, controlled or transformed",Terminal,290,Gladstone,Operational,275,Callemondah,Queensland,5,23/02/2017,,-23.85071379,151.2168754
286,Substation,"A structure in which high voltage electricity supply is converted, controlled or transformed",Terminal,291,Oakey,Operational,110,Oakey,Queensland,5,23/02/2017,,-27.41960458,151.6795076
287,Substation,"A structure in which high voltage electricity supply is converted, controlled or transformed",Zone,292,South Toowoomba,Operational,110,Kearneys Spring,Queensland,5,23/02/2017,,-27.6134135,151.938155
288,Substation,"A structure in which high voltage electricity supply is converted, controlled or transformed",Zone,293,Wulkuraka,Operational,110,Wulkuraka,Queensland,5,23/02/2017,,-27.6116796,152.7266984
289,Substation,"A structure in which high voltage electricity supply is converted, controlled or transformed",Substation,294,Columboola 1,Operational,132,Columboola,Queensland,5,23/02/2017,,-26.64841094,150.278592
290,Substation,"A structure in which high voltage electricity supply is converted, controlled or transformed",Zone,295,Greenbank,Operational,275,Greenbank,Queensland,5,23/02/2017,,-27.73227582,152.9563731
291,Substation,"A structure in which high voltage electricity supply is converted, controlled or transformed",Zone,296,Galston,Operational,132,Galston,New South Wales,5,23/02/2017,,-33.65796919,151.0409658
292,Substation,"A structure in which high voltage electricity supply is converted, controlled or transformed",Switchyard,297,Fisher,Operational,220,Mersey Forest,Tasmania,5,23/02/2017,,-41.67330734,146.2683477
293,Substation,"A structure in which high voltage electricity supply is converted, controlled or transformed",Switchyard,298,Lemonthyme,Operational,220,Mersey Forest,Tasmania,5,23/02/2017,,-41.60416954,146.1390593
294,Substation,"A structure in which high voltage electricity supply is converted, controlled or transformed",Switchyard,299,Cethana,Operational,220,Cethana,Tasmania,4,23/02/2017,,-41.478738,146.134909
295,Substation,"A structure in which high voltage electricity supply is converted, controlled or transformed",Switchyard,300,Wayatinah,Operational,220,Wayatinah,Tasmania,5,23/02/2017,,-42.4257885,146.5347265
296,Substation,"A structure in which high voltage electricity supply is converted, controlled or transformed",Substation,301,North Hobart,Operational,110,North Hobart,Tasmania,5,23/02/2017,,-42.87326184,147.3210127
297,Substation,"A structure in which high voltage electricity supply is converted, controlled or transformed",Zone,302,Boyer,Operational,110,Boyer,Tasmania,5,23/02/2017,,-42.779431,147.101065
298,Substation,"A structure in which high voltage electricity supply is converted, controlled or transformed",Substation,303,New Norfolk,Operational,110,New Norfolk,Tasmania,5,23/02/2017,,-42.7799455,147.0766645
299,Substation,"A structure in which high voltage electricity supply is converted, controlled or transformed",Terminal,304,Tarraleah,Operational,110,Tarraleah,Tasmania,5,23/02/2017,,-42.30038859,146.4577855
300,Substation,"A structure in which high voltage electricity supply is converted, controlled or transformed",Zone,305,Palmwoods,Operational,275,Landers Shoot,Queensland,5,23/02/2017,,-26.70697037,152.9370253
301,Substation,"A structure in which high voltage electricity supply is converted, controlled or transformed",Zone,306,Sumner,Operational,110,Darra,Queensland,5,23/02/2017,,-27.55761863,152.945134
302,Substation,"A structure in which high voltage electricity supply is converted, controlled or transformed",Zone,307,Goodna,Operational,275,Redbank,Queensland,5,23/02/2017,,-27.62080037,152.8780741
303,Substation,"A structure in which high voltage electricity supply is converted, controlled or transformed",Zone,308,Algester,Operational,110,Algester,Queensland,5,23/02/2017,,-27.59898653,153.0315263
304,Substation,"A structure in which high voltage electricity supply is converted, controlled or transformed",Zone,309,Coomera,Operational,110,Upper Coomera,Queensland,5,23/02/2017,,-27.85522048,153.2937793
305,Substation,"A structure in which high voltage electricity supply is converted, controlled or transformed",Zone,310,Robina,Operational,110,Robina,Queensland,5,23/02/2017,,-28.0697085,153.3763475
306,Substation,"A structure in which high voltage electricity supply is converted, controlled or transformed",Zone,311,Narrabri,Operational,132,Narrabri,New South Wales,5,23/02/2017,,-30.31696377,149.7977133
307,Substation,"A structure in which high voltage electricity supply is converted, controlled or transformed",Zone,312,Moree,Operational,132,Moree,New South Wales,5,23/02/2017,,-29.48521925,149.8556033
308,Substation,"A structure in which high voltage electricity supply is converted, controlled or transformed",Zone,313,Dumeresq,Operational,330,Bonshaw,New South Wales,5,23/02/2017,,-29.20311995,151.3288629
309,Substation,"A structure in which high voltage electricity supply is converted, controlled or transformed",Zone,314,Inverell,Operational,132,Inverell,New South Wales,5,23/02/2017,,-29.78553353,151.1593435
310,Substation,"A structure in which high voltage electricity supply is converted, controlled or transformed",Zone,315,Glen Innes,Operational,132,Glen Innes,New South Wales,5,23/02/2017,,-29.70674771,151.7731358
311,Substation,"A structure in which high voltage electricity supply is converted, controlled or transformed",Zone,316,Tenterfield,Operational,132,Tenterfield,New South Wales,5,23/02/2017,,-29.05755201,152.039187
312,Substation,"A structure in which high voltage electricity supply is converted, controlled or transformed",Zone,317,Casino,Operational,66,Yorklea,New South Wales,5,23/02/2017,,-28.89035163,153.048542
313,Substation,"A structure in which high voltage electricity supply is converted, controlled or transformed",Zone,318,Terranora,Operational,132,Terranora,New South Wales,5,23/02/2017,,-28.24114857,153.5035479
314,Substation,"A structure in which high voltage electricity supply is converted, controlled or transformed",Zone,319,Dunoon,Operational,132,Dunoon,New South Wales,5,23/02/2017,,-28.69214723,153.3131433
315,Substation,"A structure in which high voltage electricity supply is converted, controlled or transformed",Zone,320,Mullumbimby,Operational,132,Wilsons Creek,New South Wales,5,23/02/2017,,-28.57120456,153.452796
316,Substation,"A structure in which high voltage electricity supply is converted, controlled or transformed",Bulk Supply Point,321,Lismore 132,Operational,132,South Lismore,New South Wales,5,23/02/2017,,-28.81892858,153.2434501
317,Substation,"A structure in which high voltage electricity supply is converted, controlled or transformed",Zone,322,Raleigh,Operational,66,Raleigh,New South Wales,5,23/02/2017,,-30.46264602,153.0012939
318,Substation,"A structure in which high voltage electricity supply is converted, controlled or transformed",Zone,323,Port Macquarie,Operational,132,Thrumster,New South Wales,5,23/02/2017,,-31.44982294,152.8354461
319,Substation,"A structure in which high voltage electricity supply is converted, controlled or transformed",Zone,324,Rothbury,Operational,132,Rothbury,New South Wales,5,23/02/2017,,-32.71211915,151.3276606
320,Substation,"A structure in which high voltage electricity supply is converted, controlled or transformed",Sole Use,325,Capral,Operational,132,Loxford,New South Wales,5,23/02/2017,,-32.7856318,151.4795463
321,Substation,"A structure in which high voltage electricity supply is converted, controlled or transformed",Zone,326,Stroud,Operational,132,Stroud Road,New South Wales,5,23/02/2017,,-32.3476006,151.9283846
322,Substation,"A structure in which high voltage electricity supply is converted, controlled or transformed",Switchyard,327,Bayswater,Operational,500,Muswellbrook,New South Wales,5,23/02/2017,,-32.3994582,150.9460989
323,Substation,"A structure in which high voltage electricity supply is converted, controlled or transformed",Terminal,328,Liddell,Operational,330,Muswellbrook,New South Wales,5,23/02/2017,,-32.37124072,150.9750383
324,Substation,"A structure in which high voltage electricity supply is converted, controlled or transformed",Switchyard,329,Vales Point,Operational,330,Mannering Park,New South Wales,5,23/02/2017,,-33.15916442,151.5416646
325,Substation,"A structure in which high voltage electricity supply is converted, controlled or transformed",Zone,330,Munmorah,Operational,330,Colongra,New South Wales,5,23/02/2017,,-33.20980153,151.5401028
326,Substation,"A structure in which high voltage electricity supply is converted, controlled or transformed",Zone,331,Eraring,Operational,330,Eraring,New South Wales,5,23/02/2017,,-33.06259732,151.515431
327,Substation,"A structure in which high voltage electricity supply is converted, controlled or transformed",Zone,332,Coffs Harbour,Operational,330,Karangi,New South Wales,5,23/02/2017,,-30.25283746,153.0369103
328,Substation,"A structure in which high voltage electricity supply is converted, controlled or transformed",Zone,333,Kempsey,Operational,132,South Kempsey,New South Wales,5,23/02/2017,,-31.09819845,152.8193008
329,Substation,"A structure in which high voltage electricity supply is converted, controlled or transformed",Zone,334,Tamworth,Operational,132,Hillvue,New South Wales,5,23/02/2017,,-31.13134734,150.924909
330,Substation,"A structure in which high voltage electricity supply is converted, controlled or transformed",Zone,335,Tamworth,Operational,330,Calala,New South Wales,5,23/02/2017,,-31.14681288,150.951367
331,Substation,"A structure in which high voltage electricity supply is converted, controlled or transformed",Zone,336,Armidale,Operational,330,Armidale,New South Wales,5,23/02/2017,,-30.53269875,151.7129952
332,Substation,"A structure in which high voltage electricity supply is converted, controlled or transformed",Zone,337,Maroubra,Operational,132,Maroubra,New South Wales,5,23/02/2017,,-33.94231012,151.2379975
333,Substation,"A structure in which high voltage electricity supply is converted, controlled or transformed",Bulk Supply Point,338,Beaconsfield West,Operational,330,Alexandria,New South Wales,5,23/02/2017,,-33.91506805,151.1872355
334,Substation,"A structure in which high voltage electricity supply is converted, controlled or transformed",Zone,339,St Peters,Operational,132,Erskineville,New South Wales,5,23/02/2017,,-33.9066129,151.1830853
335,Substation,"A structure in which high voltage electricity supply is converted, controlled or transformed",Zone,340,Marrickville,Operational,132,Marrickville,New South Wales,5,23/02/2017,,-33.91203954,151.1622971
336,Substation,"A structure in which high voltage electricity supply is converted, controlled or transformed",Zone,341,Meadowbank,Operational,132,Meadowbank,New South Wales,5,23/02/2017,,-33.81361728,151.0936701
337,Substation,"A structure in which high voltage electricity supply is converted, controlled or transformed",Zone,342,Macquarie Park,Operational,132,Macquarie Park,New South Wales,5,23/02/2017,,-33.78672468,151.1329128
338,Substation,"A structure in which high voltage electricity supply is converted, controlled or transformed",Zone,343,Green Square,Operational,132,Alexandria,New South Wales,5,23/02/2017,,-33.91232539,151.194463
339,Substation,"A structure in which high voltage electricity supply is converted, controlled or transformed",Zone,344,Peakhurst,Operational,132,Mortdale,New South Wales,5,23/02/2017,,-33.96629447,151.0626639
340,Substation,"A structure in which high voltage electricity supply is converted, controlled or transformed",Zone,345,Haymarket,Operational,330,Haymarket,New South Wales,5,23/02/2017,,-33.88141732,151.2022468
341,Substation,"A structure in which high voltage electricity supply is converted, controlled or transformed",Zone,346,Warrimoo,Operational,132,Warrimoo,New South Wales,5,23/02/2017,,-33.73303758,150.6029665
342,Substation,"A structure in which high voltage electricity supply is converted, controlled or transformed",Zone,347,Mount Druitt,Operational,132,North St Marys,New South Wales,5,23/02/2017,,-33.76358037,150.7920815
343,Substation,"A structure in which high voltage electricity supply is converted, controlled or transformed",Zone,348,Penrith,Operational,132,Penrith,New South Wales,5,23/02/2017,,-33.74658609,150.6923709
344,Substation,"A structure in which high voltage electricity supply is converted, controlled or transformed",Bulk Supply Point,349,Macarthur,Operational,330,Menangle Park,New South Wales,5,23/02/2017,,-34.08528132,150.7663115
345,Substation,"A structure in which high voltage electricity supply is converted, controlled or transformed",Zone,350,Liverpool,Operational,330,Prestons,New South Wales,5,23/02/2017,,-33.93267276,150.8657731
346,Substation,"A structure in which high voltage electricity supply is converted, controlled or transformed",Terminal,351,Tallawarra,Operational,132,Yallah,New South Wales,5,23/02/2017,,-34.52224741,150.8071537
347,Substation,"A structure in which high voltage electricity supply is converted, controlled or transformed",Zone,352,Kangaroo Valley,Operational,330,Kangaroo Valley,New South Wales,5,23/02/2017,,-34.72380026,150.4817139
348,Substation,"A structure in which high voltage electricity supply is converted, controlled or transformed",Switchyard,353,Lower Tumut,Operational,330,Talbingo,New South Wales,5,23/02/2017,,-35.60647332,148.2886573
349,Substation,"A structure in which high voltage electricity supply is converted, controlled or transformed",Zone,354,Jindabyne,Operational,66,Jindabyne,New South Wales,5,23/02/2017,,-36.41475631,148.5980544
350,Substation,"A structure in which high voltage electricity supply is converted, controlled or transformed",Zone,355,Forbes,Operational,132,Forbes,New South Wales,5,23/02/2017,,-33.36528754,148.0196618
351,Substation,"A structure in which high voltage electricity supply is converted, controlled or transformed",Substation,356,Buronga,Operational,220,Wentworth,New South Wales,5,23/02/2017,,-34.10282952,142.259513
352,Substation,"A structure in which high voltage electricity supply is converted, controlled or transformed",Substation,357,Portland Aluminium,Operational,500,Portland,Victoria,5,23/02/2017,,-38.38686139,141.6255497
353,Substation,"A structure in which high voltage electricity supply is converted, controlled or transformed",Substation,358,Wodonga,Operational,330,Baranduda,Victoria,5,23/02/2017,,-36.15481513,146.9501485
354,Substation,"A structure in which high voltage electricity supply is converted, controlled or transformed",Switchyard,359,Hume,Operational,132,Lake Hume Village,New South Wales,5,23/02/2017,,-36.10540959,147.0325562
355,Substation,"A structure in which high voltage electricity supply is converted, controlled or transformed",Terminal,360,Clover,Operational,66,Bogong,Victoria,5,23/02/2017,Hydro,-36.78578336,147.2194456
356,Substation,"A structure in which high voltage electricity supply is converted, controlled or transformed",Substation,361,Jeeralang,Operational,220,Hazelwood North,Victoria,5,23/02/2017,,-38.27692112,146.4244822
357,Substation,"A structure in which high voltage electricity supply is converted, controlled or transformed",Substation,362,East Rowville,Operational,220,Rowville,Victoria,5,23/02/2017,,-37.94095825,145.2363406
358,Substation,"A structure in which high voltage electricity supply is converted, controlled or transformed",Transmission,363,Waubra,Operational,220,Waubra,Victoria,5,23/02/2017,,-37.3559815,143.605915
359,Substation,"A structure in which high voltage electricity supply is converted, controlled or transformed",Zone,364,Anglesea,Non-Operational,220,Anglesea,Victoria,5,23/02/2017,,-38.38547951,144.1836857
360,Substation,"A structure in which high voltage electricity supply is converted, controlled or transformed",Substation,365,Malvern,Operational,220,Malvern East,Victoria,5,23/02/2017,,-37.8778287,145.0844323
361,Substation,"A structure in which high voltage electricity supply is converted, controlled or transformed",Substation,366,Brunswick,Operational,220,Brunswick East,Victoria,5,23/02/2017,,-37.77266982,144.9843333
362,Substation,"A structure in which high voltage electricity supply is converted, controlled or transformed",Substation,367,West Melbourne,Operational,220,Kensington,Victoria,5,23/02/2017,,-37.80034051,144.9348533
363,Substation,"A structure in which high voltage electricity supply is converted, controlled or transformed",Substation,368,Richmond,Operational,220,Richmond,Victoria,5,23/02/2017,,-37.83113541,145.0015809
364,Substation,"A structure in which high voltage electricity supply is converted, controlled or transformed",Transmission,369,Yallourn,Operational,220,Yallourn,Victoria,5,23/02/2017,,-38.17413773,146.3499137
365,Substation,"A structure in which high voltage electricity supply is converted, controlled or transformed",Substation,370,Morwell,Operational,220,Morwell,Victoria,5,23/02/2017,,-38.2588285,146.4198975
366,Substation,"A structure in which high voltage electricity supply is converted, controlled or transformed",Substation,371,Morwell,Operational,66,Morwell,Victoria,5,23/02/2017,,-38.2571645,146.4208465
367,Substation,"A structure in which high voltage electricity supply is converted, controlled or transformed",Zone,372,Basslink-Loy Yang,Operational,500,Loy Yang,Victoria,5,23/02/2017,,-38.26230304,146.6080845
368,Substation,"A structure in which high voltage electricity supply is converted, controlled or transformed",Substation,373,Western Port,Operational,220,Hastings,Victoria,5,23/02/2017,,-38.28193744,145.2083069
369,Substation,"A structure in which high voltage electricity supply is converted, controlled or transformed",Terminal,374,Somerton ,Operational,66,Somerton,Victoria,5,23/02/2017,Gas,-37.6313695,144.9529774
370,Substation,"A structure in which high voltage electricity supply is converted, controlled or transformed",Substation,375,Ringwood,Operational,220,Ringwood,Victoria,5,23/02/2017,,-37.82083468,145.2155772
371,Substation,"A structure in which high voltage electricity supply is converted, controlled or transformed",Zone,376,Boambee South,Operational,132,Boambee,New South Wales,5,23/02/2017,,-30.34512337,153.0673105
372,Substation,"A structure in which high voltage electricity supply is converted, controlled or transformed",Zone,377,Nambucca,Operational,132,Valla,New South Wales,5,23/02/2017,,-30.62033395,152.9584911
373,Substation,"A structure in which high voltage electricity supply is converted, controlled or transformed",Substation,378,South Morang,Operational,500,South Morang,Victoria,5,23/02/2017,,-37.64448216,145.0784356
374,Substation,"A structure in which high voltage electricity supply is converted, controlled or transformed",Substation,379,Heywood,Operational,500,Heywood,Victoria,5,23/02/2017,,-38.180773,141.639092
375,Substation,"A structure in which high voltage electricity supply is converted, controlled or transformed",Switchyard,380,Mount Beauty,Operational,220,Mount Beauty,Victoria,5,23/02/2017,,-36.7438865,147.1658615
376,Substation,"A structure in which high voltage electricity supply is converted, controlled or transformed",Switchyard,381,Eildon,Operational,220,Eildon,Victoria,5,23/02/2017,,-37.22370778,145.9209195
377,Substation,"A structure in which high voltage electricity supply is converted, controlled or transformed",Substation,382,Glenrowan,Operational,220,Winton,Victoria,5,23/02/2017,,-36.49350287,146.1319724
378,Substation,"A structure in which high voltage electricity supply is converted, controlled or transformed",Substation,383,Fosterville,Operational,220,Axedale,Victoria,5,23/02/2017,,-36.7382295,144.5106208
379,Substation,"A structure in which high voltage electricity supply is converted, controlled or transformed",Zone,384,Chullora,Operational,132,Strathfield,New South Wales,5,23/02/2017,,-33.8789595,151.0658015
380,Substation,"A structure in which high voltage electricity supply is converted, controlled or transformed",Bulk Supply Point,385,Sydney North,Operational,330,Dural,New South Wales,5,23/02/2017,,-33.6556305,151.0301025
381,Substation,"A structure in which high voltage electricity supply is converted, controlled or transformed",Zone,386,Mason Park,Operational,132,Homebush,New South Wales,5,23/02/2017,,-33.8563485,151.074597
382,Substation,"A structure in which high voltage electricity supply is converted, controlled or transformed",Zone,387,Sydney East,Operational,330,Belrose,New South Wales,5,23/02/2017,,-33.7258225,151.2082815
383,Substation,"A structure in which high voltage electricity supply is converted, controlled or transformed",Sole Use,388,Golden Grove,Operational,132,Yalgoo,Western Australia,5,23/02/2017,,-28.7448535,116.942231
384,Substation,"A structure in which high voltage electricity supply is converted, controlled or transformed",Substation,389,Regans,Operational,132,Orange Springs,Western Australia,5,23/02/2017,,-31.01021167,115.7130442
385,Substation,"A structure in which high voltage electricity supply is converted, controlled or transformed",Zone,390,Bannaby,Operational,330,Bannaby,New South Wales,5,23/02/2017,,-34.4417455,150.051059
386,Substation,"A structure in which high voltage electricity supply is converted, controlled or transformed",Switchyard,391,Wallerawang,Operational,330,Wallerawang,New South Wales,5,23/02/2017,,-33.40641184,150.0810697
387,Substation,"A structure in which high voltage electricity supply is converted, controlled or transformed",Switchyard,392,Wallerawang,Operational,330,Wallerawang,New South Wales,5,23/02/2017,,-33.40318111,150.080755
388,Substation,"A structure in which high voltage electricity supply is converted, controlled or transformed",Zone,393,Orange,Operational,132,Orange,New South Wales,5,23/02/2017,,-33.2796915,149.1059045
389,Substation,"A structure in which high voltage electricity supply is converted, controlled or transformed",Zone,394,Wellington Town,Operational,132,Wellington,New South Wales,5,23/02/2017,,-32.57035042,148.9547361
390,Substation,"A structure in which high voltage electricity supply is converted, controlled or transformed",Zone,395,Mount Piper,Operational,500,Blackmans Flat,New South Wales,5,23/02/2017,,-33.36388454,150.0261141
391,Substation,"A structure in which high voltage electricity supply is converted, controlled or transformed",Zone,396,Panorama,Operational,132,Evans Plains,New South Wales,5,23/02/2017,,-33.43021987,149.5213612
392,Substation,"A structure in which high voltage electricity supply is converted, controlled or transformed",Zone,397,Mudgee,Operational,132,Mudgee,New South Wales,5,23/02/2017,,-32.58596233,149.5693477
393,Substation,"A structure in which high voltage electricity supply is converted, controlled or transformed",Zone,398,Wellington,Operational,330,Wuuluman,New South Wales,5,23/02/2017,,-32.52717028,148.9631647
394,Substation,"A structure in which high voltage electricity supply is converted, controlled or transformed",Zone,399,Ilford,Operational,132,Ilford,New South Wales,5,23/02/2017,,-32.95953657,149.8635928
395,Substation,"A structure in which high voltage electricity supply is converted, controlled or transformed",Substation,400,Cooma,Operational,132,Cooma,New South Wales,5,23/02/2017,,-36.21819931,149.1402751
396,Substation,"A structure in which high voltage electricity supply is converted, controlled or transformed",Zone,401,Burrinjuck,Operational,132,Burrinjuck,New South Wales,5,23/02/2017,,-35.00094752,148.5824659
397,Substation,"A structure in which high voltage electricity supply is converted, controlled or transformed",Switchyard,402,Tumut 2,Operational,330,Cabramurra,New South Wales,5,23/02/2017,,-35.8813841,148.3672174
398,Substation,"A structure in which high voltage electricity supply is converted, controlled or transformed",Zone,403,Gadara,Operational,110,Gadara,New South Wales,5,23/02/2017,,-35.29615899,148.1354816
399,Substation,"A structure in which high voltage electricity supply is converted, controlled or transformed",Zone,404,Guthega,Operational,132,Kosciuszko National Park,New South Wales,4,23/02/2017,,-36.34944291,148.4134294
400,Substation,"A structure in which high voltage electricity supply is converted, controlled or transformed",Zone,405,Murray,Operational,330,Khancoban,New South Wales,5,23/02/2017,,-36.22554964,148.1442705
401,Substation,"A structure in which high voltage electricity supply is converted, controlled or transformed",Substation,406,Coleambally,Operational,132,Coleambally,New South Wales,5,23/02/2017,,-34.74101302,145.953707
402,Substation,"A structure in which high voltage electricity supply is converted, controlled or transformed",Zone,407,Isis,Operational,132,Isis River,Queensland,5,23/02/2017,,-25.2551795,152.3666995
403,Substation,"A structure in which high voltage electricity supply is converted, controlled or transformed",Zone,408,Craiglie,Operational,132,Craiglie,Queensland,5,23/02/2017,,-16.5308525,145.4577345
404,Substation,"A structure in which high voltage electricity supply is converted, controlled or transformed",Zone,409,Yornup,Non-Operational,66,Yornup,Western Australia,5,23/02/2017,,-34.05507357,116.1715411
405,Substation,"A structure in which high voltage electricity supply is converted, controlled or transformed",Substation,410,Manjimup,Operational,132,Diamond Tree,Western Australia,5,23/02/2017,,-34.32621808,116.1105322
406,Substation,"A structure in which high voltage electricity supply is converted, controlled or transformed",Substation,411,Bridgetown,Operational,132,Bridgetown,Western Australia,5,23/02/2017,,-33.92044554,116.1373688
407,Substation,"A structure in which high voltage electricity supply is converted, controlled or transformed",Substation,412,Margaret River,Operational,66,Margaret River,Western Australia,5,23/02/2017,,-33.95334863,115.0841529
408,Substation,"A structure in which high voltage electricity supply is converted, controlled or transformed",Sole Use,413,Westralian Sands,Operational,66,Capel,Western Australia,5,23/02/2017,,-33.51222723,115.5869679
409,Substation,"A structure in which high voltage electricity supply is converted, controlled or transformed",Substation,414,Capel,Operational,66,Capel,Western Australia,5,23/02/2017,,-33.57074792,115.5283116
410,Substation,"A structure in which high voltage electricity supply is converted, controlled or transformed",Substation,415,Picton,Operational,132,Picton,Western Australia,5,23/02/2017,,-33.35054,115.701407
411,Substation,"A structure in which high voltage electricity supply is converted, controlled or transformed",Substation,416,Bunbury Harbour,Operational,132,Vittoria,Western Australia,5,23/02/2017,,-33.3346775,115.6683345
412,Substation,"A structure in which high voltage electricity supply is converted, controlled or transformed",Substation,417,Marriot Road,Operational,132,Wellesley,Western Australia,5,23/02/2017,,-33.215735,115.7598011
413,Substation,"A structure in which high voltage electricity supply is converted, controlled or transformed",Sole Use,418,Barrack Silicon,Operational,132,Wellesley,Western Australia,5,23/02/2017,,-33.21907648,115.7464367
414,Substation,"A structure in which high voltage electricity supply is converted, controlled or transformed",Switchyard,419,Kemerton,Operational,330,Wokalup,Western Australia,5,23/02/2017,,-33.152779,115.7663045
415,Substation,"A structure in which high voltage electricity supply is converted, controlled or transformed",Switchyard,420,Narrogin South,Operational,220,Narrogin Valley,Western Australia,5,23/02/2017,,-32.9611955,117.193667
416,Substation,"A structure in which high voltage electricity supply is converted, controlled or transformed",Substation,421,Narrogin,Operational,66,Narrogin Valley,Western Australia,5,23/02/2017,,-32.95264052,117.19193
417,Substation,"A structure in which high voltage electricity supply is converted, controlled or transformed",Sole Use,422,Boddington Gold Mine,Operational,132,Bannister,Western Australia,5,23/02/2017,,-32.73639617,116.3593731
418,Substation,"A structure in which high voltage electricity supply is converted, controlled or transformed",Substation,423,North Perth,Operational,132,North Perth,Western Australia,5,23/02/2017,,-31.93216412,115.8497242
419,Substation,"A structure in which high voltage electricity supply is converted, controlled or transformed",Substation,424,James Street,Operational,132,Northbridge,Western Australia,5,23/02/2017,,-31.94733793,115.854141
420,Substation,"A structure in which high voltage electricity supply is converted, controlled or transformed",Substation,425,Cook Street,Operational,132,West Perth,Western Australia,5,23/02/2017,,-31.94674,115.838559
421,Substation,"A structure in which high voltage electricity supply is converted, controlled or transformed",Substation,426,Milligan Street,Operational,132,Perth,Western Australia,5,23/02/2017,,-31.95230012,115.8517272
422,Substation,"A structure in which high voltage electricity supply is converted, controlled or transformed",Substation,427,Hay Street,Operational,132,Perth,Western Australia,5,23/02/2017,,-31.95513989,115.8630116
423,Substation,"A structure in which high voltage electricity supply is converted, controlled or transformed",Substation,428,Wellington Street,Operational,132,Perth,Western Australia,5,23/02/2017,,-31.9529325,115.864933
424,Substation,"A structure in which high voltage electricity supply is converted, controlled or transformed",Substation,429,Forrest Avenue,Operational,132,East Perth,Western Australia,5,23/02/2017,,-31.957177,115.875568
425,Substation,"A structure in which high voltage electricity supply is converted, controlled or transformed",Substation,430,Darlington,Operational,132,Darlington,Western Australia,5,23/02/2017,,-31.92609,116.069626
426,Substation,"A structure in which high voltage electricity supply is converted, controlled or transformed",Substation,431,Midland Junction,Operational,132,Midland,Western Australia,5,23/02/2017,,-31.88943,116.013342
427,Substation,"A structure in which high voltage electricity supply is converted, controlled or transformed",Substation,432,Wundowie,Operational,66,Wundowie,Western Australia,5,23/02/2017,,-31.77430983,116.3903926
428,Substation,"A structure in which high voltage electricity supply is converted, controlled or transformed",Substation,433,Sawyers Valley,Operational,132,Sawyers Valley,Western Australia,5,23/02/2017,,-31.9056855,116.1997005
429,Substation,"A structure in which high voltage electricity supply is converted, controlled or transformed",Substation,434,Mundaring Weir,Operational,66,Reservoir,Western Australia,5,23/02/2017,,-31.9569505,116.1612685
430,Substation,"A structure in which high voltage electricity supply is converted, controlled or transformed",Zone,435,Tumut 132,Operational,132,Tumut,New South Wales,5,23/02/2017,,-35.2990895,148.2036495
431,Substation,"A structure in which high voltage electricity supply is converted, controlled or transformed",Zone,436,Wagga 330,Operational,330,Gregadoo,New South Wales,5,23/02/2017,,-35.20043347,147.3935504
432,Substation,"A structure in which high voltage electricity supply is converted, controlled or transformed",Zone,437,Queensland Rail-Robina,Operational,110,Robina,Queensland,5,23/02/2017,,-28.06897114,153.3770702
433,Substation,"A structure in which high voltage electricity supply is converted, controlled or transformed",Zone,438,Nambour,Operational,132,Nambour,Queensland,5,23/02/2017,,-26.6155665,152.960844
434,Substation,"A structure in which high voltage electricity supply is converted, controlled or transformed",Zone,439,Ibis,Operational,110,North Stradbroke Island,Queensland,5,23/02/2017,,-27.61586232,153.4389884
435,Substation,"A structure in which high voltage electricity supply is converted, controlled or transformed",Zone,440,Lockrose,Operational,110,Lockrose,Queensland,5,23/02/2017,,-27.499524,152.452403
436,Substation,"A structure in which high voltage electricity supply is converted, controlled or transformed",Zone,441,Nerang,Operational,110,Nerang,Queensland,5,23/02/2017,,-28.0074435,153.3386125
437,Substation,"A structure in which high voltage electricity supply is converted, controlled or transformed",Zone,442,Abermain,Operational,110,Tivoli,Queensland,5,23/02/2017,,-27.57806689,152.7707443
438,Substation,"A structure in which high voltage electricity supply is converted, controlled or transformed",Zone,443,Kingston,Operational,110,Kingston,Tasmania,5,23/02/2017,,-42.98950095,147.280737
439,Substation,"A structure in which high voltage electricity supply is converted, controlled or transformed",Zone,444,Electrona,Operational,110,Electrona,Tasmania,5,23/02/2017,,-43.05731181,147.2612906
440,Substation,"A structure in which high voltage electricity supply is converted, controlled or transformed",Zone,445,Knights Road,Operational,110,Huonville,Tasmania,5,23/02/2017,,-43.0229495,147.0739325
441,Substation,"A structure in which high voltage electricity supply is converted, controlled or transformed",Zone,446,Kermandie,Operational,110,Geeveston,Tasmania,5,23/02/2017,,-43.164399,146.945575
442,Substation,"A structure in which high voltage electricity supply is converted, controlled or transformed",Substation,447,Bridgewater,Operational,110,Bridgewater,Tasmania,5,23/02/2017,,-42.7315171,147.2312536
443,Substation,"A structure in which high voltage electricity supply is converted, controlled or transformed",Switchyard,448,Gordon,Operational,220,Southwest,Tasmania,5,23/02/2017,,-42.740497,145.9820005
444,Substation,"A structure in which high voltage electricity supply is converted, controlled or transformed",Substation,449,New Norfolk,Operational,110,New Norfolk,Tasmania,5,23/02/2017,,-42.780562,147.0786275
445,Substation,"A structure in which high voltage electricity supply is converted, controlled or transformed",Substation,450,Derwent Bridge,Operational,110,Derwent Bridge,Tasmania,5,23/02/2017,,-42.1409995,146.2248025
446,Substation,"A structure in which high voltage electricity supply is converted, controlled or transformed",Terminal,451,Tungatin,Operational,110,Tarraleah,Tasmania,5,23/02/2017,Hydro,-42.2976905,146.4572095
447,Substation,"A structure in which high voltage electricity supply is converted, controlled or transformed",Substation,452,Waddamana 110,Operational,110,Waddamana,Tasmania,5,23/02/2017,,-42.1251965,146.745081
448,Substation,"A structure in which high voltage electricity supply is converted, controlled or transformed",Substation,453,Arthurs Lake,Operational,110,Arthurs Lake,Tasmania,5,23/02/2017,,-41.98802199,146.8619927
449,Substation,"A structure in which high voltage electricity supply is converted, controlled or transformed",Zone,454,Medina,Operational,132,Postans,Western Australia,5,23/02/2017,,-32.2250955,115.8062735
450,Substation,"A structure in which high voltage electricity supply is converted, controlled or transformed",Sole Use,455,CSBP,Operational,132,Kwinana Beach,Western Australia,5,23/02/2017,,-32.23621491,115.7758297
451,Substation,"A structure in which high voltage electricity supply is converted, controlled or transformed",Zone,456,Kenwick Link,Operational,330,Beckenham,Western Australia,5,23/02/2017,,-32.03654602,115.9572582
452,Substation,"A structure in which high voltage electricity supply is converted, controlled or transformed",Zone,457,Canningvale,Operational,132,Canning Vale,Western Australia,5,23/02/2017,,-32.0558295,115.9230885
453,Substation,"A structure in which high voltage electricity supply is converted, controlled or transformed",Substation,458,Beenup,Operational,132,Courtenay,Western Australia,5,23/02/2017,,-34.19426798,115.2708045
454,Substation,"A structure in which high voltage electricity supply is converted, controlled or transformed",Sole Use,459,Western Mining,Operational,132,East Rockingham,Western Australia,5,23/02/2017,,-32.25366259,115.76477
455,Substation,"A structure in which high voltage electricity supply is converted, controlled or transformed",Zone,460,Mungar,Operational,132,Mungar,Queensland,5,23/02/2017,,-25.59877973,152.5939846
456,Substation,"A structure in which high voltage electricity supply is converted, controlled or transformed",Zone,461,Moranbah,Operational,132,Moranbah,Queensland,5,23/02/2017,,-21.98654693,148.0246703
457,Substation,"A structure in which high voltage electricity supply is converted, controlled or transformed",Sole Use,462,British Petroleum,Operational,66,Kwinana Beach,Western Australia,5,23/02/2017,,-32.2254115,115.7758955
458,Substation,"A structure in which high voltage electricity supply is converted, controlled or transformed",Substation,463,Mason Road,Operational,132,Kwinana Beach,Western Australia,5,23/02/2017,,-32.22550423,115.7749671
459,Substation,"A structure in which high voltage electricity supply is converted, controlled or transformed",Terminal,464,Kwinana Power Partnership,Operational,132,Kwinana Beach,Western Australia,5,23/02/2017,,-32.22313205,115.7662999
460,Substation,"A structure in which high voltage electricity supply is converted, controlled or transformed",Sole Use,465,Hismelt,Operational,132,Kwinana Beach,Western Australia,5,23/02/2017,,-32.21321685,115.7760971
461,Substation,"A structure in which high voltage electricity supply is converted, controlled or transformed",Zone,466,Beckenham,Operational,132,East Cannington,Western Australia,5,23/02/2017,,-32.0180285,115.949962
462,Substation,"A structure in which high voltage electricity supply is converted, controlled or transformed",Substation,467,Rivervale 132,Operational,132,Lathlain,Western Australia,5,23/02/2017,,-31.96291,115.901847
463,Substation,"A structure in which high voltage electricity supply is converted, controlled or transformed",Zone,468,Belmont,Operational,132,Belmont,Western Australia,5,23/02/2017,,-31.9554385,115.935478
464,Substation,"A structure in which high voltage electricity supply is converted, controlled or transformed",Zone,469,Forrestfield,Operational,132,Forrestfield,Western Australia,5,23/02/2017,,-31.96795702,115.9837437
465,Substation,"A structure in which high voltage electricity supply is converted, controlled or transformed",Substation,470,Hadfields,Operational,132,Bassendean,Western Australia,5,23/02/2017,,-31.90665652,115.9421655
466,Substation,"A structure in which high voltage electricity supply is converted, controlled or transformed",Substation,471,Morley,Operational,132,Morley,Western Australia,5,23/02/2017,,-31.90502359,115.8963841
467,Substation,"A structure in which high voltage electricity supply is converted, controlled or transformed",Substation,472,Yokine,Operational,132,Yokine,Western Australia,5,23/02/2017,,-31.90366813,115.8485457
468,Substation,"A structure in which high voltage electricity supply is converted, controlled or transformed",Substation,473,Osborne Park,Operational,132,Innaloo,Western Australia,5,23/02/2017,,-31.90306967,115.8011209
469,Substation,"A structure in which high voltage electricity supply is converted, controlled or transformed",Terminal,474,South Fremantle,Operational,132,North Coogee,Western Australia,5,23/02/2017,,-32.09208505,115.7587123
